X,Y,OBJECTID,org_name,Name,addrln1,addrln2,city,state,url,zip,link,latitude,longitude,dis_status,POINT_X,POINT_Y
-118.194311056456,33.7677139670091,1836,www.lbpl.org,Long Beach Public Library,101 Pacific Ave.,,Long Beach,CA,www.lbpl.org,90822,http://egis3.lacounty.gov/lms/?p=1992,33.767714,-118.194311,,6502611.04058905,1737902.94310623
-118.354735405699,34.0133499168626,2077,LA City Department Recreation and Parks,Jim Gilliam Recreational and Senior Center,4000 S. La Brea Ave.,,Los Angeles,CA,www.laparks.org/dos.htm,90008,http://egis3.lacounty.gov/lms/?p=2210,34.01334995,-118.35473535,,6454166.95539081,1827428.36772956
-118.177563055767,33.8575879671273,2184,www.lbpl.org,Long Beach Public Library - North Neighborhood Library,5571 Orange Ave.,,Long Beach,CA,www.lbpl.org,90805,http://egis3.lacounty.gov/lms/?p=2473,33.857588,-118.177563,,6507759.23370472,1770601.03650256
-118.173990056351,33.7828379676568,2209,www.lbpl.org,Long Beach Public Library - Mark Twain Neighborhood Library,1401 E. Anaheim St.,,Long Beach,CA,www.lbpl.org,90813,http://egis3.lacounty.gov/lms/?p=2492,33.782838,-118.17399,,6508796.96850589,1743395.6749029
-118.095246055877,33.8064099673566,2211,www.lbpl.org,Long Beach Public Library - El Dorado Neighborhood Library,2900 Studebaker Rd.,,Long Beach,CA,www.lbpl.org,90815,http://egis3.lacounty.gov/lms/?p=2493,33.80641,-118.095246,,6532734.3947123,1751942.12631389
-118.214043056663,33.8046699676003,2228,www.lbpl.org,Long Beach Public Library - Bret Harte Neighborhood Library,1595 W. Willow St.,,Long Beach,CA,www.lbpl.org,90810,http://egis3.lacounty.gov/lms/?p=2509,33.80467,-118.214043,,6496642.30219847,1751364.41815172
-118.130539056133,33.7580409675165,2267,www.lbpl.org,Long Beach Public Library - Bay Shore Neighborhood Library,195 Bay Shore Ave.,,Long Beach,CA,www.lbpl.org,90803,http://egis3.lacounty.gov/lms/?p=2545,33.758041,-118.130539,,6521989.45130722,1734351.33997323
-118.145046056761,33.7823629678313,2269,www.lbpl.org,Long Beach Public Library - Brewitt Neighborhood Library,4036 E. Anaheim St.,,Long Beach,CA,www.lbpl.org,90804,http://egis3.lacounty.gov/lms/?p=2546,33.782363,-118.145046,,6517592.42860521,1743208.85112956
-118.16852305627,33.7687789677065,2271,www.lbpl.org,Long Beach Public Library - Alamitos Neighborhood Library,1836 E. 3rd St.,,Long Beach,CA,www.lbpl.org,90802,http://egis3.lacounty.gov/lms/?p=2547,33.768779,-118.168523,,6510449.74144705,1738276.38100764
-118.185782055919,33.7968699676029,2273,www.lbpl.org,Long Beach Public Library - Burnett Neighborhood Library,560 E. Hill St.,,Long Beach,CA,www.lbpl.org,90806,http://egis3.lacounty.gov/lms/?p=2548,33.79687,-118.185782,,6505222.97073264,1748508.71421748
-118.122556956727,33.793332947316,2275,www.lbpl.org,Long Beach Public Library - Los Altos Neighborhood Library,5614 Britton Dr,,Long Beach,CA,www.lbpl.org,90815,http://egis3.lacounty.gov/lms/?p=2549,33.79333298,-118.1225569,,6524431.48579322,1747192.03312381
-118.129510056494,33.8312609669377,2287,www.lbpl.org,Long Beach Public Library - Ruth Bach Neighborhood Library,4055 Bellflower Blvd.,,Long Beach,CA,www.lbpl.org,90808,http://egis3.lacounty.gov/lms/?p=2565,33.831261,-118.12951,,6522336.5749568,1760997.69416073
-118.184596055961,33.8239939676356,2383,www.lbpl.org,Long Beach Public Library - Dana Neighborhood Library,3680 Atlantic Ave.,,Long Beach,CA,www.lbpl.org,90807,http://egis3.lacounty.gov/lms/?p=2654,33.823994,-118.184596,,6505601.44799405,1758379.18693057
-118.775331455529,34.1432049964851,12485,LA County,LA County Library - Agoura Hills Library,29901 Ladyface Ct,,Agoura Hills,CA,https://lacountylibrary.org/agoura-hills-library/,91301,http://egis3.lacounty.gov/lms/?p=13303,34.14320503,-118.7753314,,6327070.69088306,1875400.2002634
-118.602621015836,34.2035903467692,56607,CIty of Los Angeles,Canoga Park Senior Center,7326 Jordan Ave.,,Canoga Park,CA,www.laparks.org/dos/senior/senior.htm,91303,http://egis3.lacounty.gov/lms/?p=58496,34.20359038,-118.60262096,Not Active,6379460.41418739,1897016.93393272
-118.306027356637,33.9456156170891,58133,City of Los Angeles,Watts Senior Center,1657 E. Century Blvd.,,Los Angeles,CA,www.laparks.org/dos/senior/senior.htm,90002,http://egis3.lacounty.gov/lms/?p=59561,33.94561565,-118.3060273,,6468852.94767231,1802730.02933106
-118.288368455738,33.9762597073379,58142,City of Los Angeles,Mt. Carmel Senior Center,830 W. 70Th St.,,Los Angeles,CA,www.laparks.org/dos/senior/senior.htm,90044,http://egis3.lacounty.gov/lms/?p=59569,33.97625974,-118.2883684,,6474240.82994114,1813866.19144189
-118.129238056485,33.9389839671024,58408,www.downeylibrary.org,Downey City Library,11121 Brookshire Ave.,,Downey,CA,www.downeylibrary.org,90241,http://egis3.lacounty.gov/lms/?p=59877,33.938984,-118.129238,,6522469.58715796,1800200.53635857
-118.364665055418,33.8415349674653,59541,www.torranceca.gov/Library/,Torrance Public Library - Henderson Branch,4805 Emerald St.,,Torrance,CA,www.torranceca.gov/Library/,90503,http://egis3.lacounty.gov/lms/?p=60796,33.841535,-118.364665,,6450930.92577364,1764912.2004393
-118.32007705569,33.8155409668529,59543,www.torranceca.gov/Library/,Torrance Public Library - Southeast Branch,23115 S. Arlington Ave.,,Torrance,CA,www.torranceca.gov/Library/,90501,http://egis3.lacounty.gov/lms/?p=60797,33.815541,-118.320077,,6464440.9860238,1755406.23388697
-118.353497055335,33.8045269675832,59545,www.torranceca.gov/Library/,Torrance Public Library - Walteria Branch,3815 W. 242nd St.,,Torrance,CA,www.torranceca.gov/Library/,90505,http://egis3.lacounty.gov/lms/?p=60798,33.804527,-118.353497,,6454274.9827338,1751431.98199297
-118.378944055554,33.8155229674318,59547,www.torranceca.gov/Library/,Torrance Public Library - El Retiro Branch,126 Vista Del Parque,,Redondo Beach,CA,www.torranceca.gov/Library/,90277,http://egis3.lacounty.gov/lms/?p=60799,33.815523,-118.378944,,6446559.09232572,1755461.86041614
-118.335601056076,33.8725449669175,59549,www.torranceca.gov/Library/,Torrance Public Library - North Torrance Branch,3604 Artesia Blvd.,,Torrance,CA,www.torranceca.gov/Library/,90504,http://egis3.lacounty.gov/lms/?p=60800,33.872545,-118.335601,,6459794.56093347,1776166.70712973
-118.343297055652,33.8376439670473,59551,www.torranceca.gov/Library/,Torrance Public Library - Katy Geissert Civic Center Library,3301 Torrance Blvd.,,Torrance,CA,www.torranceca.gov/Library/,90503,http://egis3.lacounty.gov/lms/?p=60801,33.837644,-118.343297,,6457414.97710997,1763473.32273965
-118.416106055586,33.9237459674043,59617,library.elsegundo.org/,El Segundo Public Library,111 W. Mariposa Ave.,,El Segundo,CA,library.elsegundo.org/,90245,http://egis3.lacounty.gov/lms/?p=60835,33.923746,-118.416106,,6435433.54797581,1794891.17132114
-118.127485976798,34.0931730572048,59970,www.alhambralibrary.org,Alhambra Civic Center Library,101 S. First St.,,Alhambra,CA,www.alhambralibrary.org,91801,http://egis3.lacounty.gov/lms/?p=61138,34.09317309,-118.12748592,,6523072.19618897,1856312.34637882
-118.032324057251,34.1286189670882,59973,library.ci.arcadia.ca.us,City Of Arcadia Public Library,20 W. Duarte Rd.,,Arcadia,CA,library.ci.arcadia.ca.us,91006,http://egis3.lacounty.gov/lms/?p=61139,34.128619,-118.032324,,6551887.9331768,1869188.87016639
-118.400312055943,34.0726599666703,59977,www.bhpl.org,City Of Beverly Hills Public Library,444 N. Rexford Dr.,,Beverly Hills,CA,,90210,http://egis3.lacounty.gov/lms/?p=61140,34.07266,-118.400312,,6440440.87227872,1849064.16304056
-118.064382956613,33.8669296472699,59982,www.cerritos.us/library,City Of Cerritos Library,18025 Bloomfield Ave,,Cerritos,CA,www.cerritos.us/library,90703,http://egis3.lacounty.gov/lms/?p=61143,33.86692968,-118.0643829,,6542124.77488163,1773959.34966782
-117.934013057108,34.1041949673626,59997,www.ci.irwindale.ca.us/departments/library,Irwindale Public Library,5050 N. Irwindale Ave.,,Irwindale,CA,www.ci.irwindale.ca.us/departments/library,91706,http://egis3.lacounty.gov/lms/?p=61158,34.104195,-117.934013,,6581646.17845023,1860305.50899614
-118.002264446739,34.1486893273016,59999,www.monroviapubliclibrary.org,Monrovia Public Library,321 S Myrtle Ave,,Monrovia,CA,www.monroviapubliclibrary.org,91016,http://egis3.lacounty.gov/lms/?p=61159,34.14868936,-118.00226439,,6560985.20632081,1876491.27780564
-117.75122205757,34.0537599674659,60003,www.youseemore.com/pomona,Pomona Public Library,625 S. Garey Ave.,,Pomona,CA,www.youseemore.com/pomona,91766,http://egis3.lacounty.gov/lms/?p=61161,34.05376,-117.751222,,6637026.76322688,1842037.9520274
-118.376869055724,33.8727059670244,60006,http://www.redondo.org/depts/library/default.asp,North Branch Library,2000 Artesia Blvd.,,Redondo Beach,CA,http://www.redondo.org/depts/library/default.asp,90278,http://egis3.lacounty.gov/lms/?p=61162,33.872706,-118.376869,,6447267.43211639,1776269.69544081
-118.387441055391,33.8450349674081,60008,http://www.redondo.org/depts/library/default.asp,Redondo Beach Public Library,303 N. Pacific Coast Hwy.,,Redondo Beach,CA,http://www.redondo.org/depts/library/default.asp,90277,http://egis3.lacounty.gov/lms/?p=61163,33.845035,-118.387441,,6444019.38152589,1766211.80577973
-118.112828056566,34.1188889669957,60010,crowellpubliclibrary.org,Crowell Public Library - City Of San Marino,1890 Huntington Dr.,,San Marino,CA,crowellpubliclibrary.org,91108,http://egis3.lacounty.gov/lms/?p=61164,34.118889,-118.112828,,6527520.58722655,1865665.53534956
-118.084411056247,33.9465169674507,60012,www.sfslibrary.org,Santa Fe Springs City Library,11700 Telegraph Rd.,,Santa Fe Springs,CA,www.sfslibrary.org,90670,http://egis3.lacounty.gov/lms/?p=61165,33.946517,-118.084411,,6536068.9057598,1802927.51056339
-118.061826056881,34.1617059671073,60014,www.sierramadre.lib.ca.us,City Of Sierra Madre Public Library,440 W. Sierra Madre Blvd.,,Sierra Madre,CA,www.sierramadre.lib.ca.us,91024,http://egis3.lacounty.gov/lms/?p=61166,34.161706,-118.061826,,6542966.98349905,1881234.01372698
-117.993232056992,33.9400879677219,60018,www.whittierlibrary.org,Whittier Public Library - Whittwood Branch,10537 Santa Gertrudes Ave.,,Whittier,CA,www.whittierlibrary.org,90603,http://egis3.lacounty.gov/lms/?p=61168,33.940088,-117.993232,,6563723.18837763,1800577.17700948
-118.03479505636,33.9751509672723,60020,www.whittierlibrary.org,Whittier Public Library,7344 S. Washington Ave.,,Whittier,CA,www.whittierlibrary.org,90602,http://egis3.lacounty.gov/lms/?p=61169,33.975151,-118.034795,,6551120.79068223,1813339.11605248
-118.158884557174,34.1913088771697,60024,www.altadenalibrary.org,Bob Lucas Memorial Library And Literacy Center,2659 Lincoln Ave,,Altadena,CA,www.altadenalibrary.org,91001,http://egis3.lacounty.gov/lms/?p=61170,34.19130891,-118.1588845,,6513622.29678172,1892039.27000356
-118.137097056949,34.189446966896,60027,www.altadenalibrary.org,Altadena Library And Library  District Office,600 E. Mariposa St.,,Altadena,CA,www.altadenalibrary.org,91001,http://egis3.lacounty.gov/lms/?p=61171,34.189447,-118.137097,,6520210.09430164,1891351.98758547
-118.328395255738,33.7556254469656,60029,www.pvld.org,Palos Verdes Library District - Miraleste Library,29089 Palos Verdes Dr E,,Rancho Palos Verdes,CA,www.pvld.org,90274,http://egis3.lacounty.gov/lms/?p=61172,33.75562548,-118.3283952,,6461842.9498813,1733609.56291348
-118.389563055452,33.7988269671025,60031,www.pvld.org,Palos Verdes Library District - Malaga Cove Library,2400 Via Campesina,,Palos Verdes Estates,CA,www.pvld.org,90274,http://egis3.lacounty.gov/lms/?p=61173,33.798827,-118.389563,,6443309.84259063,1749398.11106072
-118.370038055246,33.7709099676437,60033,www.pvld.org,City Of Palos Verdes Library District - Peninsula Center Library,701 Silver Spur Rd.,,Rolling Hills Estates,CA,www.pvld.org,90274,http://egis3.lacounty.gov/lms/?p=61174,33.77091,-118.370038,,6449204.67299256,1739215.98575573
-117.90508605672,34.1343189666576,60706,www.ci.azusa.ca.us/library,Azusa City Library,729 N. Dalton Ave.,,Azusa,CA,www.ci.azusa.ca.us/library,91702,http://egis3.lacounty.gov/lms/?p=61388,34.134319,-117.905086,,6590392.7223088,1871275.19473389
-118.246428056308,33.9438469671904,60709,www.lapl.org,Los Angeles Public Library - Alma Reaves Woods - Watts Branch,10205 Compton Ave.,,Los Angeles,CA,www.lapl.org,90002,http://egis3.lacounty.gov/lms/?p=61389,33.943847,-118.246428,,6486927.66119473,1802036.70657073
-118.282863056029,33.9486749670038,60711,www.lapl.org,Los Angeles Public Library - Mark Twain Branch,9621 S. Figueroa St.,,Los Angeles,CA,www.lapl.org,90003,http://egis3.lacounty.gov/lms/?p=61390,33.948675,-118.282863,,6475881.74102938,1803822.80929773
-118.292486055971,33.7354899675547,60713,www.lapl.org,Los Angeles Public Library - San Pedro Regional Branch,931 S. Gaffey St.,,San Pedro,CA,www.lapl.org,90731,http://egis3.lacounty.gov/lms/?p=61391,33.73549,-118.292486,,6472737.47139931,1726247.9765868
-118.385804056352,34.0483539669031,60715,www.lapl.org,Los Angeles Public Library - Robertson Branch,1719 S. Robertson Blvd.,,Los Angeles,CA,www.lapl.org,90035,http://egis3.lacounty.gov/lms/?p=61392,34.048354,-118.385804,,6444800.46559364,1840201.62531948
-118.319242056551,34.0256949667892,60717,www.lapl.org,Los Angeles Public Library - Jefferson - Vassie D. Wright Memorial Branch,2211 W. Jefferson Blvd.,,Los Angeles,CA,www.lapl.org,90018,http://egis3.lacounty.gov/lms/?p=61393,34.025695,-118.319242,,6464937.52768163,1831884.89588998
-118.468621055468,34.0528129669785,60719,www.lapl.org,Los Angeles Public Library - Donald Bruce Kaufman Branch,11820 San Vicente Blvd.,,Los Angeles,CA,www.lapl.org,90049,http://egis3.lacounty.gov/lms/?p=61394,34.052813,-118.468621,,6419720.81693414,1841930.94863248
-118.311516956053,34.0743465868998,60721,www.lapl.org,Los Angeles Public Library - Wilshire Branch,149 N Saint Andrews Pl,,Los Angeles,CA,www.lapl.org,90004,http://egis3.lacounty.gov/lms/?p=61395,34.07434662,-118.3115169,,6467333.15576439,1849582.73975931
-118.32913005637,34.0400369666351,60723,www.lapl.org,Los Angeles Public Library - Washington Irving Branch,4117 W. Washington Blvd.,,Los Angeles,CA,www.lapl.org,90018,http://egis3.lacounty.gov/lms/?p=61396,34.040037,-118.32913,,6461958.48737989,1837113.86869973
-118.295962055719,33.9997219669136,60725,www.lapl.org,Los Angeles Public Library - Vermont Square Branch,1201 W. 48th St.,,Los Angeles,CA,www.lapl.org,90037,http://egis3.lacounty.gov/lms/?p=61397,33.999722,-118.295962,,6471963.69702822,1822411.25046723
-118.241026056644,34.0597429672007,60727,www.lapl.org,Los Angeles Public Library - Chinatown Branch,639 N. Hill St.,,Los Angeles,CA,www.lapl.org,90012,http://egis3.lacounty.gov/lms/?p=61398,34.059743,-118.241026,,6488667.24006464,1844209.54643747
-118.497771056185,34.264370965998,60729,www.lapl.org,Los Angeles Public Library - Granada Hills,10640 Petit Ave.,,Granada  Hills,CA,www.lapl.org,91344,http://egis3.lacounty.gov/lms/?p=61399,34.264371,-118.497771,,6411272.34695446,1918962.3021154
-118.212412055908,34.0442239665896,60731,www.lapl.org,Los Angeles Public Library - Benjamin Franklin Branch,2200 E. 1st St.,,Los Angeles,CA,www.lapl.org,90033,http://egis3.lacounty.gov/lms/?p=61400,34.044224,-118.212412,,6497322.03509097,1838542.34517348
-118.592543055798,34.2570789666771,60733,www.lapl.org,Los Angeles Public Library - Chatsworth Branch,21052 Devonshire St.,,Chatsworth,CA,www.lapl.org,91311,http://egis3.lacounty.gov/lms/?p=61401,34.257079,-118.592543,,6382622.32124938,1916463.9567184
-118.589722056132,34.2012439663126,60735,www.lapl.org,Los Angeles Public Library - Canoga Park Branch,20939 Sherman Way,,Canoga Park,CA,www.lapl.org,91303,http://egis3.lacounty.gov/lms/?p=61402,34.201244,-118.589722,,6383355.51958613,1896139.92650039
-118.257077056014,34.0672279665825,60737,www.lapl.org,Los Angeles Public Library - Echo Park Branch,1410 W. Temple St.,,Los Angeles,CA,www.lapl.org,90026,http://egis3.lacounty.gov/lms/?p=61403,34.067228,-118.257077,,6483812.61460331,1846945.51832773
-118.243655056455,34.0502069671486,60739,www.lapl.org,Los Angeles Public Library - Little Tokyo Branch,203 S. Los Angeles St.,,Los Angeles,CA,www.lapl.org,90012,http://egis3.lacounty.gov/lms/?p=61404,34.050207,-118.243655,,6487862.54580788,1840741.14097273
-118.213301056983,34.1376639665346,60741,www.lapl.org,Los Angeles Public Library - Eagle Rock Branch,5027 Caspar Ave.,,Los Angeles,CA,www.lapl.org,90041,http://egis3.lacounty.gov/lms/?p=61405,34.137664,-118.213301,,6497124.87800497,1872547.42020781
-118.197849056635,34.0505889672236,60743,www.lapl.org,Los Angeles Public Library - Malabar Branch,2801 Wabash Ave.,,Los Angeles,CA,www.lapl.org,90033,http://egis3.lacounty.gov/lms/?p=61406,34.050589,-118.197849,,6501738.31726889,1840849.68570314
-118.287233056022,34.1052519669464,60745,www.lapl.org,Los Angeles Public Library - Los Feliz Branch,1874 Hillhurst Ave.,,Los Angeles,CA,www.lapl.org,90027,http://egis3.lacounty.gov/lms/?p=61407,34.105252,-118.287233,,6474719.20660906,1860807.84263715
-118.450344056382,34.3073559664884,60747,www.lapl.org,Los Angeles Public Library - Sylmar Branch,14561 Polk St.,,Sylmar,CA,www.lapl.org,91342,http://egis3.lacounty.gov/lms/?p=61408,34.307356,-118.450344,,6425672.06192139,1934537.5957679
-118.429178056165,34.2612049665219,60749,www.lapl.org,Los Angeles Public Library - Pacoima Branch,13605 Van Nuys Blvd.,,Pacoima,CA,www.lapl.org,91331,http://egis3.lacounty.gov/lms/?p=61409,34.261205,-118.429178,,6431992.18018664,1917714.5880754
-118.328296756453,34.1004386265478,60751,www.lapl.org,Los Angeles Public Library - Frances Howard Goldwyn Hollywood Regional Branch,1623 N Ivar Ave,,Hollywood,CA,www.lapl.org,90028,http://egis3.lacounty.gov/lms/?p=61410,34.10043866,-118.3282967,,6462282.73115396,1859094.24763915
-118.428974055738,34.0059099663965,60753,www.lapl.org,Los Angeles Public Library - Mar Vista Branch,12006 Venice Blvd.,,Los Angeles,CA,www.lapl.org,90066,http://egis3.lacounty.gov/lms/?p=61411,34.00591,-118.428974,,6431657.32947838,1824808.54915032
-118.352534056406,34.0284919667487,60755,www.lapl.org,Los Angeles Public Library - Baldwin Hills Branch,2906 S. La Brea Ave.,,Los Angeles,CA,www.lapl.org,90016,http://egis3.lacounty.gov/lms/?p=61412,34.028492,-118.352534,,6454853.4028368,1832936.48236948
-118.308716055917,34.0144609673169,60757,www.lapl.org,Los Angeles Public Library - Exposition Park Branch,3900 S. Western Ave.,,Los Angeles,CA,www.lapl.org,90062,http://egis3.lacounty.gov/lms/?p=61413,34.014461,-118.308716,,6468114.42126222,1827786.67475572
-118.353328055699,34.0717019663371,60759,www.lapl.org,Los Angeles Public Library Library - Fairfax Branch,161 S. Gardner St.,,Los Angeles,CA,www.lapl.org,90036,http://egis3.lacounty.gov/lms/?p=61414,34.071702,-118.353328,,6454668.09808931,1848662.19107547
-118.168289756842,34.0893882269189,60761,www.lapl.org,Los Angeles Public Library - El Sereno Branch,5226 Huntington Dr S,,Los Angeles,CA,www.lapl.org,90032,http://egis3.lacounty.gov/lms/?p=61415,34.08938826,-118.1682897,,6510715.98960222,1854953.1525749
-118.417262056198,33.9595989670321,60763,www.lapl.org,Los Angeles Public Library - Westchester-Loyola Village Branch,7114 W. Manchester Ave.,,Los Angeles,CA,www.lapl.org,90045,http://egis3.lacounty.gov/lms/?p=61416,33.959599,-118.417262,,6435137.00887072,1807940.21018365
-118.379213055893,34.1652599662602,60765,www.lapl.org,Los Angeles Public Library - North Hollywood - Amelia M. Earhart Regional Branch,5211 Tujunga Ave.,,North Hollywood,CA,www.lapl.org,91601,http://egis3.lacounty.gov/lms/?p=61417,34.16526,-118.379213,,6446957.53936347,1882738.0064539
-118.274473056606,33.9745599669843,60767,www.lapl.org,Los Angeles Public Library - Ascot Branch,120 W. Florence,,Los Angeles,CA,www.lapl.org,90003,http://egis3.lacounty.gov/lms/?p=61418,33.97456,-118.274473,,6478452.03214863,1813235.82754515
-118.301239056372,34.2579489666709,60769,www.lapl.org,Los Angeles Public Library - Sunland-Tujunga Branch,7771 Foothill Blvd.,,Tujunga,CA,www.lapl.org,91042,http://egis3.lacounty.gov/lms/?p=61419,34.257949,-118.301239,,6470645.8574723,1916389.22360015
-118.331861056621,34.0565839663801,60771,www.lapl.org,Los Angeles Public Library - Memorial Branch,4625 W. Olympic Blvd.,,Los Angeles,CA,www.lapl.org,90019,http://egis3.lacounty.gov/lms/?p=61420,34.056584,-118.331861,,6461150.99883738,1843138.33237256
-118.21428005667,34.0762519667198,60773,www.lapl.org,Los Angeles Public Library - Biblioteca Del Pueblo De Lincoln Heights,2530 Workman St.,,Los Angeles,CA,www.lapl.org,90031,http://egis3.lacounty.gov/lms/?p=61421,34.076252,-118.21428,,6496780.98860088,1850199.12763414
-118.345333055915,34.0977999663199,60775,www.lapl.org,Los Angeles Public Library - Will And Ariel Durant Branch,7140 W. Sunset Blvd.,,Los Angeles,CA,www.lapl.org,90046,http://egis3.lacounty.gov/lms/?p=61422,34.0978,-118.345333,,6457121.9317643,1858151.27708414
-118.41816125585,34.0334870465546,60777,www.lapl.org,Los Angeles Public Library - Palms-Rancho Park Branch,2920 Overland Ave,,Los Angeles,CA,www.lapl.org,90064,http://egis3.lacounty.gov/lms/?p=61423,34.03348708,-118.4181612,,6434976.19226322,1834830.50614047
-118.530003056274,34.1665519666142,60779,www.lapl.org,Los Angeles Public Library - Encino-Tarzana Branch,18231 Ventura Blvd.,,Tarzana,CA,www.lapl.org,91356,http://egis3.lacounty.gov/lms/?p=61424,34.166552,-118.530003,,6401346.06595406,1883414.47983848
-118.534015055585,34.2351659660953,60781,www.lapl.org,Los Angeles Public Library - Northridge Branch,9051 Darby Ave.,,Northridge,CA,www.lapl.org,91325,http://egis3.lacounty.gov/lms/?p=61425,34.235166,-118.534015,,6400265.11536005,1908390.42627756
-118.46530005568,33.9873749669653,60783,www.lapl.org,Los Angeles Public Library - Venice - Abbot Kinney Memorial Branch,501 S. Venice Blvd.,,Venice,CA,www.lapl.org,90291,http://egis3.lacounty.gov/lms/?p=61426,33.987375,-118.4653,,6420616.5343028,1818112.32796273
-118.262905055646,33.7890169672277,60785,www.lapl.org,Los Angeles Public Library - Wilmington Branch,1300 N. Avalon Blvd.,,Wilmington,CA,www.lapl.org,90744,http://egis3.lacounty.gov/lms/?p=61427,33.789017,-118.262905,,6481782.75481789,1745703.09810956
-118.450452055692,34.0457459669706,60787,www.lapl.org,Los Angeles Public Library - West Los Angeles Regional Branch,11360 Santa Monica Blvd.,,Los Angeles,CA,www.lapl.org,90025,http://egis3.lacounty.gov/lms/?p=61428,34.045746,-118.450452,,6425212.80759056,1839333.9948369
-118.283687056065,34.0632989672195,60789,www.lapl.org,Los Angeles Public Library - Felipe De Neve Branch,2820 W. Sixth St.,,Los Angeles,CA,www.lapl.org,90057,http://egis3.lacounty.gov/lms/?p=61429,34.063299,-118.283687,,6475749.5598633,1845537.36333564
-118.259051056479,34.1199899665654,60791,www.lapl.org,Los Angeles Public Library - Atwater Village Branch,3379 Glendale Blvd.,,Los Angeles,CA,www.lapl.org,90039,http://egis3.lacounty.gov/lms/?p=61430,34.11999,-118.259051,,6483264.25874464,1866148.07473882
-118.559288055565,34.2772639659146,60793,www.lapl.org,Los Angeles Public Library - Porter Ranch Branch,11371 Tampa Ave.,,Porter Ranch,CA,www.lapl.org,91326,http://egis3.lacounty.gov/lms/?p=61431,34.277264,-118.559288,,6392711.70953514,1923751.95887464
-118.22734005667,34.0945859666978,60795,www.lapl.org,Los Angeles Public Library - Cypress Park Branch,1150 Cypress Ave.,,Los Angeles,CA,www.lapl.org,90065,http://egis3.lacounty.gov/lms/?p=61432,34.094586,-118.22734,,6492841.19070622,1856879.88789465
-118.370578056215,34.2148099663214,60797,www.lapl.org,Los Angeles Public Library - Sun Valley Branch,7935 Vineland Ave.,,Sun Valley,CA,www.lapl.org,91352,http://egis3.lacounty.gov/lms/?p=61433,34.21481,-118.370578,,6449636.11274648,1900760.2834014
-118.446322056629,34.2217489663347,60799,www.lapl.org,Los Angeles Public Library - Panorama City Branch,14345 Roscoe Blvd.,,Panorama City,CA,www.lapl.org,91402,http://egis3.lacounty.gov/lms/?p=61434,34.221749,-118.446322,,6426748.31764288,1903378.53538273
-118.610619056179,34.1684139667535,60801,www.lapl.org,Los Angeles Public Library - Woodland Hills Branch,22200 Ventura Blvd.,,Woodland Hills,CA,www.lapl.org,91364,http://egis3.lacounty.gov/lms/?p=61435,34.168414,-118.610619,,6376964.37291963,1884230.44310156
-118.317803056163,33.9747259671662,60803,www.lapl.org,Los Angeles Public Library - Hyde Park - Miriam Matthews Branch,2205 Florence Ave.,,Los Angeles,CA,www.lapl.org,90043,http://egis3.lacounty.gov/lms/?p=61436,33.974726,-118.317803,,6465314.91045706,1813334.94217631
-118.443689056381,34.1511369668389,60805,www.lapl.org,Los Angeles Public Library - Sherman Oaks Martin Pollard Branch,14245 Moorpark St.,,Sherman Oaks,CA,www.lapl.org,91423,http://egis3.lacounty.gov/lms/?p=61437,34.151137,-118.443689,,6427430.83497864,1877678.27608781
-118.292175056102,33.9815279672184,60807,www.lapl.org,Los Angeles Public Library - John Muir Branch,1005 W. 64th St.,,Los Angeles,CA,www.lapl.org,90044,http://egis3.lacounty.gov/lms/?p=61438,33.981528,-118.292175,,6473092.29483664,1815786.7466559
-118.256308056109,34.0026039669952,60809,www.lapl.org,Los Angeles Public Library - Vernon Branch,4504 S. Central Ave.,,Los Angeles,CA,www.lapl.org,90011,http://egis3.lacounty.gov/lms/?p=61439,34.002604,-118.256308,,6483985.54437555,1823427.04797632
-118.274192056207,34.0016739671366,60811,www.lapl.org,Los Angeles Public Library - Junipero Serra Branch,4607 S. Main St.,,Los Angeles,CA,www.lapl.org,90037,http://egis3.lacounty.gov/lms/?p=61440,34.001674,-118.274192,,6478564.14511339,1823102.90689231
-118.33371905589,34.0836179670151,60813,www.lapl.org,Los Angeles Public Library - John C. Fremont Branch,6121 Melrose Ave.,,Los Angeles,CA,www.lapl.org,90038,http://egis3.lacounty.gov/lms/?p=61441,34.083618,-118.333719,,6460620.88309972,1852978.33204947
-118.289025056423,34.0910099664482,60815,www.lapl.org,Los Angeles Public Library - Cahuenga Branch,4591 Santa Monica Blvd.,,Los Angeles,CA,www.lapl.org,90029,http://egis3.lacounty.gov/lms/?p=61442,34.09101,-118.289025,,6474161.83141147,1855626.4878424
-118.524987056042,34.044368966688,60817,www.lapl.org,Los Angeles Public Library - Palisades Branch,861 Alma Real Dr.,,Pacific Palisades,CA,www.lapl.org,90272,http://egis3.lacounty.gov/lms/?p=61443,34.044369,-118.524987,,6402631.14638914,1838942.4401738
-118.405806056468,34.1505039667752,60819,www.lapl.org,Los Angeles Public Library - Studio City Branch,12511 Moorpark St.,,Studio City,CA,www.lapl.org,91604,http://egis3.lacounty.gov/lms/?p=61444,34.150504,-118.405806,,6438891.45969513,1877399.48563489
-118.198107055993,34.0275339669502,60821,www.lapl.org,Los Angeles Public Library - Robert Louis Stevenson Branch,803 Spence St.,,Los Angeles,CA,www.lapl.org,90023,http://egis3.lacounty.gov/lms/?p=61445,34.027534,-118.198107,,6501643.62913805,1832459.68739131
-118.547853055764,34.1936889663339,60823,www.lapl.org,Los Angeles Public Library - West Valley Regional Branch,19036 Vanowen St.,,Reseda,CA,www.lapl.org,91335,http://egis3.lacounty.gov/lms/?p=61446,34.193689,-118.547853,,6396000.37421763,1893318.92886156
-118.307631056717,34.0600049665527,60825,www.lapl.org,Los Angeles Public Library - Pio Pico Koreatown Branch,694 S. Oxford Ave.,,Los Angeles,CA,www.lapl.org,90005,http://egis3.lacounty.gov/lms/?p=61447,34.060005,-118.307631,,6468493.9523273,1844359.94902381
-118.441874055785,34.0578639663893,60827,www.lapl.org,Los Angeles Public Library - Westwood Branch,1246 Glendon Ave.,,Westwood,CA,www.lapl.org,90024,http://egis3.lacounty.gov/lms/?p=61448,34.057864,-118.441874,,6427830.7501893,1843732.39384848
-118.486228056523,34.2354739660364,60829,www.lapl.org,Los Angeles Public Library - Mid-Valley Regional Branch,16244 Nordhoff St.,,Sepulveda,CA,www.lapl.org,91343,http://egis3.lacounty.gov/lms/?p=61449,34.235474,-118.486228,,6414709.08614397,1908429.21163306
-118.186319056531,34.1138699668403,60831,www.lapl.org,Los Angeles Public Library - Arroyo Seco Regional Branch,6145 N. Figueroa St.,,Los Angeles,CA,www.lapl.org,90042,http://egis3.lacounty.gov/lms/?p=61450,34.11387,-118.186319,,6505273.64287539,1863872.12948756
-118.641209055785,34.1863019661446,60833,www.lapl.org,Los Angeles Public Library - Platt Branch,23600 Victory Blvd.,,Woodland Hills,CA,www.lapl.org,91367,http://egis3.lacounty.gov/lms/?p=61451,34.186302,-118.641209,,6367752.86181514,1890797.69637123
-118.307357056474,33.8066689672223,60835,www.lapl.org,Los Angeles Public Library - Harbor City - Harbor Gateway Branch,24000 S. Western Ave.,,Harbor City,CA,www.lapl.org,90710,http://egis3.lacounty.gov/lms/?p=61452,33.806669,-118.307357,,6468295.03769888,1752165.43065731
-118.262265056068,34.0779849672697,60837,www.lapl.org,Los Angeles Public Library - Edendale Branch,2011 W. Sunset Blvd.,,Los Angeles,CA,www.lapl.org,90026,http://egis3.lacounty.gov/lms/?p=61453,34.077985,-118.262265,,6482251.60689855,1850864.24211755
-118.322559056501,33.9948859669888,60839,www.lapl.org,Los Angeles Public Library - Angeles Mesa Branch,2700 W. 52nd St.,,Los Angeles,CA,www.lapl.org,90043,http://egis3.lacounty.gov/lms/?p=61454,33.994886,-118.322559,,6463896.47562988,1820676.1423889
-118.280198055901,34.0508089668591,60841,www.lapl.org,Los Angeles Public Library - Pico Union Branch,1030 S. Alvarado St.,,Los Angeles,CA,www.lapl.org,90006,http://egis3.lacounty.gov/lms/?p=61455,34.050809,-118.280198,,6476793.60633163,1840989.06403331
-118.401113055701,34.194092966513,60843,www.lapl.org,Los Angeles Public Library - Valley Plaza Branch,12311 Vanowen St.,,North Hollywood,CA,www.lapl.org,91605,http://egis3.lacounty.gov/lms/?p=61456,34.194093,-118.401113,,6440374.64537705,1893256.48836964
-118.254911056619,34.0506289667623,60846,www.lapl.org,City Of Los Angeles Public Library,630 W. 5th St.,,Los Angeles,CA,www.lapl.org,90071,http://egis3.lacounty.gov/lms/?p=61457,34.050629,-118.254911,,6484453.28359756,1840903.17017622
-118.210561206206,34.0208768370477,62213,LA City Department Recreation and Parks,Lou Costello Recreation Center,3141 E Olympic Blvd,,Los Angeles,CA,www.laparks.org/dos.htm,90023,http://egis3.lacounty.gov/lms/?p=70011,34.02087687,-118.21056115,,6497864.93459572,1830044.70107956
-118.170074656254,33.7970743572734,62486,,City Of Signal Hill Community Services And Parks And Recreation Department - Signal Hill Library,1770 E Hill St,,Signal Hill,CA,www.cityofsignalhill.org,90755,http://egis3.lacounty.gov/lms/?p=70249,33.79707439,-118.1700746,,6509995.57404831,1748574.64945306
-118.446377655847,34.1837738063596,62657,,Los Angeles Public Library - Van Nuys Branch,6250 Sylmar Ave,,Van Nuys,CA,www.lapl.org,91401,http://egis3.lacounty.gov/lms/?p=70330,34.18377384,-118.4463776,,6426670.13964963,1889558.89930815
-118.393882956423,34.2733768765994,62662,,Los Angeles Public Library - Lake View Terrace Branch,12002 Osborne St,,Lake View Terrace,CA,www.lapl.org,91342,http://egis3.lacounty.gov/lms/?p=70331,34.27337691,-118.3938829,,6442674.06039764,1922100.47234823
-118.376521556204,34.0454933768951,62803,,Claude Pepper Senior Center,1762 S La Cienega Blvd,,Los Angeles,CA,www.laparks.org/dos/senior/senior.htm,90035,http://egis3.lacounty.gov/lms/?p=70414,34.04549341,-118.3765215,,6447608.4586653,1839149.94533622
-118.232616656822,34.1175753669632,62806,,Glassell Park Senior Citizen Center,3750 Verdugo Rd,,Los Angeles,CA,www.laparks.org/dos/senior/senior.htm,90065,http://egis3.lacounty.gov/lms/?p=70416,34.1175754,-118.2326166,,6491263.01833764,1865249.79241465
-118.198200756513,34.4951415563608,62971,,LA County Library - Acton Agua Dulce Library,33792 Crown Valley Rd,,Acton,CA,http://www.colapublib.org/libs/acton/index.php,93510,http://egis3.lacounty.gov/lms/?p=70483,34.49514159,-118.1982007,,6501950.77550539,2002630.79685156
-118.07845551652,33.8879558169943,62973,,LA County Library - Alondra Library,11949 Alondra Blvd,,Norwalk,CA,https://lacountylibrary.org/alondra-library/,90650,http://egis3.lacounty.gov/lms/?p=70485,33.88795585,-118.07845546,,6537858.55703613,1781614.31434473
-118.133335756351,33.8487163675605,62976,,LA County Library - Angelo M. Iacoboni Library,4990 Clark Ave,,Lakewood,CA,https://lacountylibrary.org/angelo-m-iacoboni-library/,90712,http://egis3.lacounty.gov/lms/?p=70486,33.8487164,-118.1333357,,6521183.09038714,1767351.67554723
-118.180207356808,34.0407141673444,62982,,LA County Library - Anthony Quinn Library,3965 E Cesar Chavez Ave,,Los Angeles,CA,https://lacountylibrary.org/anthony-quinn-library/,90063,http://egis3.lacounty.gov/lms/?p=70488,34.0407142,-118.1802073,,6507075.85613447,1837246.00918348
-118.079085316005,33.8605959976599,62985,,LA County Library - Artesia Library,18722 Clarkdale Ave,,Artesia,CA,https://lacountylibrary.org/artesia-library/,90701,http://egis3.lacounty.gov/lms/?p=70489,33.86059603,-118.07908526,,6537659.57515064,1771657.56391706
-118.327314155473,33.3430740784329,62989,,LA County Library - Avalon Library,215 Sumner Ave,,Avalon,CA,https://lacountylibrary.org/avalon-library/,90704,http://egis3.lacounty.gov/lms/?p=70490,33.34307411,-118.3273141,,6461682.67723598,1583464.12993723
-117.965423657178,34.0880617469658,62993,,LA County Library - Baldwin Park Library,4181 Baldwin Park Blvd,,Baldwin Park,CA,https://lacountylibrary.org/baldwin-park-library/,91706,http://egis3.lacounty.gov/lms/?p=70491,34.08806178,-117.9654236,,6572139.45533772,1854429.57028873
-118.150554656912,33.9671380672768,62995,,LA County Library - Bell Gardens Library,7110 Garfield Ave,,Bell Gardens,CA,https://lacountylibrary.org/bell-gardens-library/,90201,http://egis3.lacounty.gov/lms/?p=70492,33.9671381,-118.1505546,,6516019.14106938,1810455.41217422
-118.188763556155,33.9782621172943,62997,,LA County Library - Bell Library,4411 Gage Ave,,Bell,CA,https://lacountylibrary.org/bell-library/,90201,http://egis3.lacounty.gov/lms/?p=70493,33.97826215,-118.1887635,,6504441.04709964,1814523.23704381
-118.276353555918,33.8320391368174,63000,,LA County Library - Carson Library,151 E Carson St,,Carson,CA,https://lacountylibrary.org/carson-library/,90745,http://egis3.lacounty.gov/lms/?p=70494,33.83203917,-118.2763535,,6477739.28390221,1761370.92536965
-118.626333156471,34.4945875460397,63004,,LA County Library - Castaic Library,27971 Sloan Canyon Rd,,Castaic,CA,https://lacountylibrary.org/castaic-library/,91384,http://egis3.lacounty.gov/lms/?p=70495,34.49458758,-118.6263331,,6372950.70968714,2002958.26535673
-117.853606657754,34.1063506868299,63006,,LA County Library - Charter Oak Library,20540 E Arrow Hwy,Suite K,Covina,CA,https://lacountylibrary.org/charter-oak-library/,91724,http://egis3.lacounty.gov/lms/?p=70496,34.10635072,-117.8536066,,6605985.97294639,1861115.7308009
-118.120147756032,33.9935973769783,63008,,LA County Library - Chet Holifield Library,1060 Greenwood Ave,,Montebello,CA,https://lacountylibrary.org/chet-holifield-library/,90640,http://egis3.lacounty.gov/lms/?p=70497,33.99359741,-118.1201477,,6525250.63048039,1820072.08880697
-118.178290255991,34.0557108571562,63012,,LA County Library - City Terrace Library,4025 City Terrace Dr,,Los Angeles,CA,https://lacountylibrary.org/city-terrace-library/,90063,http://egis3.lacounty.gov/lms/?p=70498,34.05571089,-118.1782902,,6507666.32837872,1842702.5530604
-117.716001257956,34.095921047354,63014,,LA County Library - Claremont Library,208 N Harvard Ave,,Claremont,CA,https://lacountylibrary.org/claremont-library/,91711,http://egis3.lacounty.gov/lms/?p=70499,34.09592108,-117.7160012,,6647651.98902364,1857409.38683565
-118.121903356907,33.8821538169473,63018,,LA County Library - Clifton M. Brakensiek Library,9945 E Flower St,,Bellflower,CA,https://lacountylibrary.org/clifton-m-brakensiek-library/,90706,http://egis3.lacounty.gov/lms/?p=70500,33.88215385,-118.1219033,,6524669.28157747,1779515.97110048
-118.225697956622,33.8955406273273,63022,,LA County Library - Compton Library,240 W Compton Blvd,,Compton,CA,https://lacountylibrary.org/compton-library/,90220,http://egis3.lacounty.gov/lms/?p=70501,33.89554066,-118.2256979,,6493175.70611331,1784442.20927948
-118.174749856217,33.9593789871146,63024,,LA County Library - Cudahy Library,5218 Santa Ana St,,Cudahy,CA,https://lacountylibrary.org/cudahy-library/,90201,http://egis3.lacounty.gov/lms/?p=70502,33.95937902,-118.1747498,,6508677.76697263,1807643.59201048
-118.397149555575,34.0075038664568,63027,,LA County Library - Culver City Julian Dixon Library,4975 Overland Ave.,,Culver City,CA,https://lacountylibrary.org/culver-city-julian-dixon-library/,90230,http://egis3.lacounty.gov/lms/?p=70503,34.0075039,-118.3971495,,6441304.90598372,1825348.96145532
-117.830834557259,33.9995767869793,63029,,LA County Library - Diamond Bar Library,21800 Copley Dr,,Diamond Bar,CA,https://lacountylibrary.org/diamond-bar-library/,91765,http://egis3.lacounty.gov/lms/?p=70504,33.99957682,-117.8308345,,6612944.84616771,1822269.50403155
-118.265614756068,33.8677488770224,63033,,"LA County Library - Dr. Martin Luther King, Jr. Library",17906 S Avalon Blvd,,Carson,CA,https://lacountylibrary.org/dr-martin-luther-king-jr-library/,90746,http://egis3.lacounty.gov/lms/?p=70505,33.86774891,-118.2656147,,6481035.08669381,1774357.76356915
-117.978076556539,34.1381312769933,63035,,LA County Library - Duarte Library,1301 Buena Vista St,,Duarte,CA,https://lacountylibrary.org/duarte-library/,91010,http://egis3.lacounty.gov/lms/?p=70506,34.13813131,-117.9780765,,6568304.4042808,1872649.72610556
-118.159911056936,34.0340192172654,63039,,LA County Library - East Los Angeles Library,4837 E 3rd St,,Los Angeles,CA,https://lacountylibrary.org/east-los-angeles-library/,90022,http://egis3.lacounty.gov/lms/?p=70507,34.03401925,-118.159911,,6513220.81431697,1834799.18533698
-118.19349235637,33.8938810976089,63044,,LA County Library - East Rancho Dominguez Library,4420 E Rose St,,East Rancho Dominguez,CA,https://lacountylibrary.org/east-rancho-dominguez-library/,90221,http://egis3.lacounty.gov/lms/?p=70508,33.89388113,-118.1934923,,6502948.2613713,1783817.88900581
-118.177769156337,34.0237451272516,63047,,LA County Library - El Camino Real Library,4264 E Whittier Blvd,,Los Angeles,CA,https://lacountylibrary.org/el-camino-real-library/,90023,http://egis3.lacounty.gov/lms/?p=70509,34.02374516,-118.1777691,,6507803.5961488,1831069.33354473
-118.035580356818,34.067072926958,63049,,LA County Library - El Monte Library,3224 Tyler Ave,,El Monte,CA,https://lacountylibrary.org/el-monte-library/,91731,http://egis3.lacounty.gov/lms/?p=70510,34.06707296,-118.0355803,,6550894.53391689,1846791.4444889
-118.245088056693,33.9745319872489,63054,,LA County Library - Florence Express Library,7600 Graham Ave,,Los Angeles,CA,https://lacountylibrary.org/florence-library/,90001,http://egis3.lacounty.gov/lms/?p=70511,33.97453202,-118.245088,,6487361.31551114,1813202.61993439
-118.307568956305,33.8822139870528,63057,,LA County Library - Gardena Mayme Dear Library,1731 W Gardena Blvd,,Gardena,CA,https://lacountylibrary.org/gardena-mayme-dear-library/,90247,http://egis3.lacounty.gov/lms/?p=70512,33.88221402,-118.3075689,,6468314.78536281,1779658.25690514
-118.103278096093,33.8464260075231,63060,,"LA County Library - George Nye, Jr. Library",6600 Del  Amo Blvd,,Lakewood,CA,https://lacountylibrary.org/george-nye-jr-library/,90713,http://egis3.lacounty.gov/lms/?p=70513,33.84642604,-118.10327804,,6530309.2066493,1766507.41411239
-118.238352356614,33.9599448771986,63065,,LA County Library - Graham Library,1900 E Firestone Blvd,,Los Angeles,CA,https://lacountylibrary.org/graham-library/,90001,http://egis3.lacounty.gov/lms/?p=70514,33.95994491,-118.2383523,,6489390.94235739,1807889.16336973
-117.964111726766,33.9935489774102,63067,,LA County Library - Hacienda Heights Library,16010 La  Monde St,,Hacienda Heights,CA,https://lacountylibrary.org/hacienda-heights-library/,91745,http://egis3.lacounty.gov/lms/?p=70515,33.99354901,-117.96411167,,6572548.96698588,1820034.6535144
-118.077993726062,33.8312591177536,63069,,LA County Library - Hawaiian Gardens Library,11940 Carson St,,Hawaiian Gardens,CA,https://lacountylibrary.org/hawaiian-gardens-library/,90716,http://egis3.lacounty.gov/lms/?p=70516,33.83125915,-118.07799367,,6537982.70475373,1760980.87234397
-118.354335055439,33.9172229271597,63073,,LA County Library - Hawthorne Library,12700 Grevillea Ave,,Hawthorne,CA,https://lacountylibrary.org/hawthorne-library/,90250,http://egis3.lacounty.gov/lms/?p=70517,33.91722296,-118.354335,,6454164.96556538,1792445.48592381
-118.395945555309,33.8644497270475,63075,,LA County Library - Hermosa Beach Library,550 Pier Ave,,Hermosa Beach,CA,https://lacountylibrary.org/hermosa-beach-library/,90254,http://egis3.lacounty.gov/lms/?p=70518,33.86444976,-118.3959455,,6441464.73604463,1773287.33165489
-118.168596156528,33.9177161268259,63077,,LA County Library - Hollydale Library,12000 S Garfield Ave,,South Gate,CA,https://lacountylibrary.org/hollydale-library/,90280,http://egis3.lacounty.gov/lms/?p=70519,33.91771616,-118.1685961,,6510518.4332388,1792478.38841707
-118.218686555869,33.9803488369055,63079,,LA County Library - Huntington Park Library,6518 Miles Ave,,Huntington Park,CA,https://lacountylibrary.org/huntington-park-library/,90255,http://egis3.lacounty.gov/lms/?p=70520,33.98034887,-118.2186865,,6495370.66300946,1815301.02288981
-118.194201756183,34.2027663766581,63081,,LA County Library - La Canada Flintridge Library,4545 N Oakwood Ave,,La Canada Flintridge,CA,https://lacountylibrary.org/la-canada-flintridge-library/,91011,http://egis3.lacounty.gov/lms/?p=70521,34.20276641,-118.1942017,,6502950.14194497,1896227.61103632
-118.240081056718,34.2243083565019,63084,,LA County Library - La Crescenta Library,2809 Foothill Blvd,,La Crescenta,CA,https://lacountylibrary.org/la-crescenta-library/,91214,http://egis3.lacounty.gov/lms/?p=70522,34.22430839,-118.240081,,6489096.5036418,1904097.07134722
-118.010324897053,33.9063729568963,63086,,LA County Library - La Mirada Library,13800 La Mirada Blvd,,La Mirada,CA,https://lacountylibrary.org/la-mirada-library/,90638,http://egis3.lacounty.gov/lms/?p=70523,33.90637299,-118.01032484,,6558537.35918239,1788307.61329406
-117.951180456464,34.0198480873804,63090,,LA County Library - La Puente Library,15920 E Central Ave,,La Puente,CA,https://lacountylibrary.org/la-puente-library/,91744,http://egis3.lacounty.gov/lms/?p=70524,34.01984812,-117.9511804,,6576464.10449681,1829607.08581306
-117.764472457272,34.1114131773527,63092,,LA County Library - La Verne Library,3640 D St,,La Verne,CA,https://lacountylibrary.org/la-verne-library/,91750,http://egis3.lacounty.gov/lms/?p=70525,34.11141321,-117.7644724,,6632963.97738922,1863009.32248615
-117.828026417357,34.6168061060347,63094,,LA County Library - Lake Los Angeles Library,16921 E Ave O,#A,Palmdale,CA,https://lacountylibrary.org/lake-los-angeles-library/,93591,http://egis3.lacounty.gov/lms/?p=70526,34.61680614,-117.82802636,,6613411.68381672,2046892.92387831
-118.139521757253,34.6981309260694,63096,,LA County Library - Lancaster Library,601 W Lancaster Blvd,,Lancaster,CA,https://lacountylibrary.org/lancaster-library/,93534,http://egis3.lacounty.gov/lms/?p=70527,34.69813096,-118.1395217,,6519733.77537239,2076474.23348197
-118.353879755988,33.8988760670132,63099,,LA County Library - Lawndale Library,14615 Burin Ave,,Lawndale,CA,https://lacountylibrary.org/lawndale-library/,90260,http://egis3.lacounty.gov/lms/?p=70529,33.8988761,-118.3538797,,6454279.59689781,1785768.19416031
-118.201418156592,33.9440976474577,63102,,LA County Library - Leland R. Weaver Library,4035 Tweedy Blvd,,South Gate,CA,https://lacountylibrary.org/leland-r-weaver-library/,90280,http://egis3.lacounty.gov/lms/?p=70530,33.94409768,-118.2014181,,6500579.51938964,1802097.52305014
-118.358947955948,33.9373590669677,63104,,LA County Library - Lennox Library,4359 Lennox Blvd.,,Lennox,CA,https://lacountylibrary.org/lennox-library/,90304,http://egis3.lacounty.gov/lms/?p=70531,33.9373591,-118.3589479,,6452791.58379772,1799778.39907947
-117.988263057176,34.5199665161159,63106,,LA County Library - Littlerock Library,35119 80Th St E,,Littlerock,CA,https://lacountylibrary.org/littlerock-library/,93543,http://egis3.lacounty.gov/lms/?p=70532,34.51996655,-117.988263,,6565205.72445455,2011606.50068489
-118.01307035726,34.1099198372258,63108,,LA County Library - Live Oak Library,4153 E Live Oak Ave,,Arcadia,CA,https://lacountylibrary.org/live-oak-library/,91006,http://egis3.lacounty.gov/lms/?p=70533,34.10991987,-118.0130703,,6557713.90413639,1862382.59506506
-118.443128005822,33.9828870469177,63111,,LA County Library - Lloyd Taber-Marina Del Rey Library,4533 Admiralty Way,,Marina Del Rey,CA,https://lacountylibrary.org/lloyd-taber-marina-del-rey-library/,90292,http://egis3.lacounty.gov/lms/?p=70534,33.98288708,-118.44312795,,6427330.65604514,1816448.72400647
-118.319143245841,33.8053244171949,63116,,LA County Library - Lomita Library,24200 Narbonne Ave,,Lomita,CA,https://lacountylibrary.org/lomita-library/,90717,http://egis3.lacounty.gov/lms/?p=70535,33.80532445,-118.31914319,,6464712.84243546,1751687.27347714
-118.067605156459,33.9646138271145,63120,,LA County Library - Los Nietos Library,11644 Slauson Ave,,Whittier,CA,https://lacountylibrary.org/los-nietos/,90606,http://egis3.lacounty.gov/lms/?p=70536,33.96461386,-118.0676051,,6541170.47757764,1809509.49411856
-118.199720056173,33.9264920472079,63123,,LA County Library - Lynwood Library,11320 Bullis Rd,,Lynwood,CA,https://lacountylibrary.org/lynwood-library/,90262,http://egis3.lacounty.gov/lms/?p=70537,33.92649208,-118.19972,,6501081.82842439,1795689.43842539
-118.691072655747,34.0358460465942,63125,,LA County Library - Malibu Library,23519 Civic Center Way,,Malibu,CA,https://lacountylibrary.org/malibu-library/,90265,http://egis3.lacounty.gov/lms/?p=70538,34.03584608,-118.6910726,,6352296.66799006,1836145.20232998
-118.410444855929,33.8868158772488,63128,County of Los Angeles Public Library,LA County Library - Manhattan Beach Library,1320 Highland Ave,,Manhattan Beach,CA,https://lacountylibrary.org/manhattan-beach-library/,90266,http://egis3.lacounty.gov/lms/?p=70539,33.88681591,-118.4104448,,6437096.1352018,1781444.50497305
-118.272074856463,33.9162286774688,63132,,LA County Library - A C Bilbrew Library,150 E El  Segundo Blvd,,Los Angeles,CA,https://lacountylibrary.org/a-c-bilbrew-library/,90061,http://egis3.lacounty.gov/lms/?p=70540,33.91622871,-118.2720748,,6479121.68993005,1792005.89133056
-118.326755655961,33.8999570668681,63135,,LA County Library - Masao W. Satow Library,14433 Crenshaw Blvd,,Gardena,CA,https://lacountylibrary.org/masao-w-satow-library/,90249,http://egis3.lacounty.gov/lms/?p=70541,33.8999571,-118.3267556,,6462512.10897605,1786133.72525339
-118.18911405602,33.9875700369596,63137,,LA County Library - Maywood Cesar Chavez Library,4323 Slauson Ave,,Maywood,CA,https://lacountylibrary.org/maywood-cesar-chavez-library/,90270,http://egis3.lacounty.gov/lms/?p=70542,33.98757007,-118.189114,,6504341.15556714,1817910.7775128
-118.115514856704,34.0206428474216,63139,,LA County Library - Montebello Library,1550 W Beverly Blvd,,Montebello,CA,https://lacountylibrary.org/montebello-library/,90640,http://egis3.lacounty.gov/lms/?p=70543,34.02064288,-118.1155148,,6526666.28512938,1829912.83323306
-118.069357916932,33.9166734576657,63142,,LA County Library - Norwalk Library,12350 Imperial Hwy,,Norwalk,CA,https://lacountylibrary.org/norwalk-library/,90650,http://egis3.lacounty.gov/lms/?p=70544,33.91667349,-118.06935786,,6540626.9517618,1792063.30066456
-118.01570205679,34.0868356668939,63146,,LA County Library - Norwood Library,4550 Peck Rd,,El Monte,CA,https://lacountylibrary.org/norwood-library/,91732,http://egis3.lacounty.gov/lms/?p=70545,34.0868357,-118.015702,,6556915.96806823,1853981.94651206
-118.161018356845,33.8858052471934,63149,,LA County Library - Paramount Library,16254 Colorado Ave,,Paramount,CA,https://lacountylibrary.org/paramount-library/,90723,http://egis3.lacounty.gov/lms/?p=70546,33.88580528,-118.1610183,,6512798.92605314,1780861.52024664
-118.072768257022,34.0079399473431,63153,,LA County Library - Pico Rivera Library,9001 Mines Ave.,,Pico Rivera,CA,https://lacountylibrary.org/pico-rivera-library/,90660,http://egis3.lacounty.gov/lms/?p=70547,34.00793998,-118.0727682,,6539616.28777264,1825277.8615319
-118.218186157025,34.6462027255318,63156,,LA County Library - Quartz Hill Library,42018 50Th St W,,Quartz Hill,CA,https://lacountylibrary.org/quartz-hill-library/,93536,http://egis3.lacounty.gov/lms/?p=70548,34.64620276,-118.2181861,,6496048.34275647,2057618.12585306
-118.100808856547,33.9689213268149,63158,,LA County Library - Rivera Library,7828 Serapis Ave,,Pico Rivera,CA,https://lacountylibrary.org/rivera-library/,90660,http://egis3.lacounty.gov/lms/?p=70549,33.96892136,-118.1008088,,6531103.7149028,1811085.51852556
-118.07706295623,34.0800668367444,63161,,LA County Library - Rosemead Library,8800 Valley Blvd,,Rosemead,CA,https://lacountylibrary.org/rosemead-library/,91770,http://egis3.lacounty.gov/lms/?p=70550,34.08006687,-118.0770629,,6538334.80509938,1851527.21388873
-117.888778757395,33.9844443576392,63164,,LA County Library - Rowland Heights Library,1850 Nogales St,,Rowland Heights,CA,https://lacountylibrary.org/rowland-heights-library/,91748,http://egis3.lacounty.gov/lms/?p=70551,33.98444439,-117.8887787,,6595387.90654413,1816738.00656439
-117.802919457363,34.1081691267225,63167,,LA County Library - San Dimas Library,145 N Walnut Ave,,San Dimas,CA,https://lacountylibrary.org/san-dimas-library/,91773,http://egis3.lacounty.gov/lms/?p=70552,34.10816916,-117.8029194,,6621328.49213006,1861803.71006797
-118.43876355649,34.2855349459524,63170,,LA County Library - San Fernando Library,217 N Maclay Ave,,San Fernando,CA,https://lacountylibrary.org/san-fernando-library/,91340,http://egis3.lacounty.gov/lms/?p=70553,34.28553498,-118.4387635,,6429134.5428573,1926581.13235015
-118.099288456515,34.0955904873635,63173,,LA County Library - San Gabriel Library,500 S Del  Mar Ave,,San Gabriel,CA,https://lacountylibrary.org/san-gabriel-library/,91776,http://egis3.lacounty.gov/lms/?p=70554,34.09559052,-118.0992884,,6531610.25260364,1857182.46438923
-118.062229757185,33.9800808775915,63176,,LA County Library - Sorensen Library,6934 Broadway Ave,,Whittier,CA,https://lacountylibrary.org/sorensen-library/,90606,http://egis3.lacounty.gov/lms/?p=70556,33.98008091,-118.0622297,,6542803.94084613,1815137.22794181
-118.046692557241,34.0448634767939,63179,,LA County Library - South El Monte Library,1430 Central Ave,,South El Monte,CA,https://lacountylibrary.org/south-el-monte-library/,91733,http://egis3.lacounty.gov/lms/?p=70557,34.04486351,-118.0466925,,6547525.35627206,1838710.37305264
-118.024534516792,33.9242998976958,63182,,LA County Library - South Whittier Library,14433 Leffingwell Rd,,Whittier,CA,https://lacountylibrary.org/south-whittier-library/,90604,http://egis3.lacounty.gov/lms/?p=70558,33.92429993,-118.02453446,,6554227.1804668,1794832.38436523
-117.97680075676,34.0551169768003,63187,,LA County Library - Sunkist Library,840 N Puente Ave,,La Puente,CA,https://lacountylibrary.org/sunkist-library/,91746,http://egis3.lacounty.gov/lms/?p=70559,34.05511701,-117.9768007,,6568697.4369593,1842439.34820622
-118.056768457104,34.1079972469485,63189,,LA County Library - Temple City Library,5939 Golden West Ave,,Temple City,CA,https://lacountylibrary.org/temple-city-library/,91780,http://egis3.lacounty.gov/lms/?p=70560,34.10799728,-118.0567684,,6544485.94962122,1861687.52329248
-118.341113856169,33.992874527314,63193,,LA County Library - View Park Bebe Moore Campbell Library,3854 W 54Th St,,Los Angeles,CA,https://lacountylibrary.org/view-park-library/,90043,http://egis3.lacounty.gov/lms/?p=70562,33.99287456,-118.3411138,,6458269.69488873,1819962.70943256
-117.843421256803,34.0260720269854,63195,,LA County Library - Walnut Library,21155 La  Puente Rd,,Walnut,CA,https://lacountylibrary.org/walnut-library/,91789,http://egis3.lacounty.gov/lms/?p=70563,34.02607206,-117.8434212,,6609114.76655756,1831905.46409032
-117.940539557095,34.0706520567931,63198,,LA County Library - West Covina Library,1601 W West Covina Pkwy,,West Covina,CA,https://lacountylibrary.org/west-covina-library/,91790,http://egis3.lacounty.gov/lms/?p=70564,34.07065209,-117.9405395,,6579677.67188856,1848097.3788849
-118.383376355735,34.08167264646,63200,,LA County Library - West Hollywood Library,625 N San Vicente Blvd,,West Hollywood,CA,https://lacountylibrary.org/west-hollywood-library/,90069,http://egis3.lacounty.gov/lms/?p=70565,34.08167268,-118.3833763,,6445582.12019831,1852324.03184889
-118.799099505295,34.1444754362802,63202,,LA County Library - Westlake Village Library,31220 Oak Crest Dr,,Westlake Village,CA,https://lacountylibrary.org/westlake-village-library/,91361,http://egis3.lacounty.gov/lms/?p=70566,34.14447547,-118.79909945,,6319882.78334288,1875918.84489539
-118.238993756281,33.9254316767686,63206,,LA County Library - Willowbrook Library,11838 Wilmington Ave,,Los Angeles,CA,https://lacountylibrary.org/willowbrook-library/,90059,http://egis3.lacounty.gov/lms/?p=70567,33.92543171,-118.2389937,,6489166.57797672,1795329.54675673
-118.373156655656,33.9095326766257,63208,,LA County Library - Wiseburn Library,5335 135Th St,,Hawthorne,CA,https://lacountylibrary.org/wiseburn-library/,90250,http://egis3.lacounty.gov/lms/?p=70568,33.90953271,-118.3731566,,6448444.12136406,1789667.51116481
-118.299580155915,33.9398567670011,63210,,LA County Library - Woodcrest Library,1340 W 106Th St,,Los Angeles,CA,https://lacountylibrary.org/woodcrest-library/,90044,http://egis3.lacounty.gov/lms/?p=70569,33.9398568,-118.2995801,,6470802.11700231,1800628.37572598
-118.149964256518,33.966577527506,64461,,Southeast Community Development Corporation,6423 Florence Pl,Suite 103,Bell Gardens,CA,www.scdcorp.org/,90201,http://egis3.lacounty.gov/lms/?p=71182,33.96657756,-118.1499642,,6516197.85790356,1810251.15241215
-118.239499456372,34.049593726859,64597,,Diskovery Center,353 E 1St St,,Los Angeles,CA,diskovery.ltsc.org/,90012,http://egis3.lacounty.gov/lms/?p=71258,34.04959376,-118.2394994,,6489120.82281889,1840514.94621514
-118.242187856732,34.0532642271753,64605,,Los Angeles Computer Access Network,200 N Main St,Rm. 1400,Los Angeles,CA,recovery.lacity.org/index.htm,90012,http://egis3.lacounty.gov/lms/?p=71262,34.05326426,-118.2421878,,6488309.6686013,1841852.66007514
-118.459024235823,34.4164809758084,64882,,City Of Santa Clarita - Canyon Country Jo Anne Darcy Library,18601 Soledad Canyon Rd,,Santa Clarita,CA,www.santaclaritalibrary.com,91351,http://egis3.lacounty.gov/lms/?p=71448,34.41648101,-118.45902418,,6423232.12520023,1974261.74466589
-118.530137415853,34.381698345714,64886,,City Of Santa Clarita - Old Town Newhall Library,22704 9Th St,,Newhall,CA,www.santaclaritalibrary.com,91321,http://egis3.lacounty.gov/lms/?p=71449,34.38169838,-118.53013736,,6401718.35786039,1961709.3521198
-118.550938175869,34.415542226057,64890,,City Of Santa Clarita - Valencia Library,23743 Valencia Blvd,,Santa Clarita,CA,www.santaclaritalibrary.com,91355,http://egis3.lacounty.gov/lms/?p=71450,34.41554226,-118.55093812,,6395509.96279688,1974059.38188164
-118.594001156237,34.3895162058286,64915,,LA County Library - Stevenson Ranch Library,25950 The Old Rd,,Stevenson Ranch,CA,https://lacountylibrary.org/stevenson-ranch-library/,91381,http://egis3.lacounty.gov/lms/?p=71456,34.38951624,-118.5940011,,6382466.54498614,1964662.12246098
-118.26933185592,34.1143430566457,65026,LA City Department Recreation and Parks,Griffith Park Adult Community Center,3203 Riverside Dr,,Los Angeles,CA,www.laparks.org/dos/senior/senior.htm,90027,http://egis3.lacounty.gov/lms/?p=71550,34.11434309,-118.2693318,,6480147.10585822,1864101.24517106
-118.335491956687,34.1033260269436,65030,LA City Department Recreation and Parks,Yucca Community Center,6671 Yucca St,,Los Angeles,CA,www.laparks.org/dos.htm,90028,http://egis3.lacounty.gov/lms/?p=71552,34.10332606,-118.3354919,,6460107.99206513,1860152.2130429
-118.410921946172,33.9935111367335,65035,LA City Department Recreation and Parks,Mar Vista Gardens Recreation Center,4901 Marionwood Dr,,Culver City,CA,www.laparks.org/dos.htm,90230,http://egis3.lacounty.gov/lms/?p=71554,33.99351117,-118.41092189,,6437110.06726055,1820273.54050381
-118.25940615664,34.1004935469919,65314,,Los Angeles Public Library - Silverlake Branch,2411 Glendale Blvd,,Los Angeles,CA,www.lapl.org,90039,http://egis3.lacounty.gov/lms/?p=71665,34.10049358,-118.2594061,,6483138.47192273,1859053.26543765
-118.604044655733,34.0901186168212,65677,,LA County Library - Topanga Library,122 N Topanga Canyon Blvd,,Topanga,CA,https://lacountylibrary.org/topanga-library/,90290,http://egis3.lacounty.gov/lms/?p=71876,34.09011865,-118.6040446,,6378781.81351048,1855725.81900856